,City,Country,Max Temp,Current Description,Lat,Lng,Hotel Name
1,Kavaratti,IN,80.73,overcast clouds,10.5669,72.642,Green leaf
2,Atuona,PF,76.24,clear sky,-9.8,-139.0333,Villa Enata
3,Puerto Ayora,EC,75.16,overcast clouds,-0.7393,-90.3518,Finch Bay Galapagos Hotel
6,Vaini,TO,78.96,broken clouds,-21.2,-175.2,Keleti Beach Resort
9,Avarua,CK,80.65,broken clouds,-21.2078,-159.775,Paradise Inn
10,Arraial Do Cabo,BR,73.26,clear sky,-22.9661,-42.0278,Pousada Porto Praia
12,Turkistan,KZ,61.02,overcast clouds,43.0,68.0,
13,Touho,NC,74.46,few clouds,-20.7833,165.2333,Auberge Timay Evasion
14,Hermanus,ZA,61.81,light rain,-34.4187,19.2345,Misty Waves Boutique Hotel
15,Akyab,MM,78.33,overcast clouds,20.15,92.9,ဟိုတယ် မန်မိုရီ
16,Saint George,US,81.43,clear sky,37.1041,-113.5841,Best Western Plus Abbey Inn
20,San Jose,US,74.52,scattered clouds,37.3394,-121.895,The Westin San Jose
22,Bathsheba,BB,81.21,few clouds,13.2167,-59.5167,Atlantis Hotel
24,Grand-Santi,GF,81.5,broken clouds,4.25,-54.3833,Hotel La Villa Couacou
25,Sao Filipe,CV,77.23,scattered clouds,14.8961,-24.4956,Hotel Xaguate
27,Kibuye,RW,64.62,light rain,-2.0597,29.3482,Rebero Kivu Resort
28,Victoria,HK,81.32,overcast clouds,22.2855,114.1577,Mini Central
33,Teofilo Otoni,BR,74.86,broken clouds,-17.8575,-41.5053,Hotel Nobre Palace
34,Luwuk,ID,77.86,broken clouds,-0.9516,122.7875,Hotel Santika Luwuk
35,Shimoda,JP,67.1,overcast clouds,34.6667,138.95,Shimoda Tokyu Hotel
37,Katsuura,JP,68.02,light rain,35.1333,140.3,Katsuura Hotel Mikazuki
39,Felipe Carrillo Puerto,MX,83.1,light rain,19.5833,-88.05,Hotel La Ceiba
41,Pisco,PE,64.45,clear sky,-13.7,-76.2167,Hotel San Isidro Oficial
42,Sitka,US,60.69,broken clouds,57.0531,-135.33,Westmark Sitka
43,Emerald,AU,72.34,broken clouds,-23.5333,148.1667,The Irish Village
44,Bethel,US,61.63,clear sky,41.3712,-73.414,Courtyard by Marriott Danbury
47,Alofi,NU,77.4,scattered clouds,-19.0595,-169.9187,Taloa Heights
48,Buala,SB,83.75,light rain,-8.145,159.5921,Maringe Lagoon Lodge
50,Nkhotakota,MW,75.34,clear sky,-12.9274,34.2961,Sitima Inn
51,Rosetta,EG,74.14,clear sky,31.4044,30.4164,Green Valley
52,Rikitea,PF,68.68,broken clouds,-23.1203,-134.9692,People ThankYou
54,Mumford,GH,77.5,light rain,5.2618,-0.759,Peace Guest House
56,Hamilton,US,70.77,broken clouds,39.1834,-84.5333,Six Acres Bed & Breakfast
57,Pecanha,BR,67.08,clear sky,-18.5486,-42.5569,PEÇANHA GRANDE HOTEL
59,Bukama,CD,72.82,few clouds,-9.2,25.85,
60,Galle,LK,76.8,overcast clouds,6.0367,80.217,Amangalla
61,Cayhagan,PH,78.67,light rain,9.6697,122.4256,Melrose Beach Resort
62,Tecoanapa,MX,85.01,broken clouds,16.5167,-98.75,Hotel Manglares
63,Otsuki,JP,64.99,overcast clouds,35.6,138.9333,真木温泉
64,Cayenne,GF,82.44,clear sky,4.9333,-52.3333,Hôtel Le Dronmi
65,Ahipara,NZ,63.46,overcast clouds,-35.1667,173.1667,Ahipara Holiday Park
66,Ixtapa,MX,87.22,overcast clouds,20.7,-105.2,hotel la terminal
67,Lompoc,US,78.01,scattered clouds,34.6391,-120.4579,"Holiday Inn Express Lompoc, an IHG Hotel"
68,Hwange,ZW,76.66,scattered clouds,-18.3693,26.5019,Hwange Colliery Guest House
70,Camopi,GF,80.91,overcast clouds,3.1655,-52.3158,La pousada
71,Hithadhoo,MV,80.73,overcast clouds,-0.6,73.0833,Scoop Guest House
72,Ribeira Grande,PT,66.78,broken clouds,38.5167,-28.7,Quinta da Meia Eira
74,Mabopane,ZA,70.66,broken clouds,-25.4977,28.1007,Wolf Residence
75,Changuinola,PA,80.71,light rain,9.4333,-82.5167,ApartHotel Villa Esmeralda
76,Castro,BR,60.82,overcast clouds,-24.7911,-50.0119,CHACARA BAILLY
77,Presidente Medici,BR,80.46,heavy intensity rain,-11.1753,-61.9014,Oliveira Palace Hotel
78,Melilla,ES,73.78,clear sky,35.2937,-2.9383,Hotel Anfora
82,Cape Town,ZA,66.11,clear sky,-33.9258,18.4232,"Radisson Blu Hotel Waterfront, Cape Town"
84,Cardoso,BR,86.74,broken clouds,-20.0819,-49.9142,EmilioTur Pescaria
88,Matara,LK,75.72,moderate rain,5.9485,80.5353,Amaloh Boutique Resort
90,Namibe,AO,68.52,broken clouds,-15.1961,12.1522,Hotel Chik Chik Namibe
91,Ponta Do Sol,PT,72.23,broken clouds,32.6667,-17.1,Hotel do Campo
92,Mahebourg,MU,71.89,scattered clouds,-20.4081,57.7,Shandrani Beachcomber Resort & Spa
93,Port Alfred,ZA,63.18,overcast clouds,-33.5906,26.891,The Halyards Hotel & Spa
98,East London,ZA,66.22,overcast clouds,-33.0153,27.9116,Tu Casa
99,Natchitoches,US,81.45,clear sky,31.7668,-93.1335,Super 8 by Wyndham Natchitoches
101,Davila,PH,76.98,overcast clouds,18.4726,120.5763,Blue Ridge Beach Resort
102,Churachandpur,IN,62.47,few clouds,24.3333,93.6667,Joyful tunglut
104,Paragominas,BR,76.82,overcast clouds,-2.9667,-47.4833,INOVA
106,Itoman,JP,81.37,light rain,26.1247,127.6694,Southern Beach Hotel & Resort Okinawa
107,Butaritari,KI,81.55,broken clouds,3.0707,172.7902,Isles Sunset Lodge
108,Saint-Philippe,RE,69.39,few clouds,-21.3585,55.7679,Le four à pain
111,Coahuayana,MX,86.02,overcast clouds,18.7333,-103.6833,El rranchito michuacan de ocampos
112,Iquique,CL,60.84,scattered clouds,-20.2208,-70.1431,Backpacker`s Hostel Iquique
116,Sal Rei,CV,76.77,scattered clouds,16.1833,-22.9167,Marine Club Beach Resort
118,Carnarvon,AU,63.57,few clouds,-24.8667,113.6333,Hospitality Carnarvon
120,Pachino,IT,68.99,scattered clouds,36.7186,15.0907,Il Veliero
121,Saldanha,ZA,60.84,clear sky,-33.0117,17.9442,Blue Bay Lodge
122,Fukue,JP,70.09,overcast clouds,32.6881,128.8419,Goto Guesthouse Utojuku & SA Car Rental
126,Georgetown,MY,76.95,few clouds,5.4112,100.3354,Cititel Penang
127,Sabang,ID,80.87,overcast clouds,5.8933,95.3214,Hotel Citra
130,Samarai,PG,81.45,broken clouds,-10.6167,150.6667,Nuli Sapi
131,Abu Dhabi,AE,86.02,clear sky,24.4667,54.3667,Beach Rotana
132,Corvallis,US,76.1,clear sky,44.5646,-123.262,Hilton Garden Inn Corvallis
138,Port Elizabeth,ZA,70.11,overcast clouds,-33.918,25.5701,39 On Nile Guest House
139,Sarankhola,BD,71.42,broken clouds,22.3082,89.7897,Red Crescent Cyclone Shelter Rashulpur
140,La Reforma,MX,83.5,few clouds,25.0833,-108.05,Hotel Reforma
141,Malakal,SS,72.61,light rain,9.5334,31.6605,Nile Palace Hotel
142,Ardakan,IR,71.76,clear sky,32.31,54.0175,Ardakan Hotel
145,Kruisfontein,ZA,68.88,overcast clouds,-34.0033,24.7314,Oyster Bay House Rental
149,Coihaique,CL,70.41,few clouds,-45.5752,-72.0662,Diego De Almagro Coyhaique
151,Kapaa,US,84.52,few clouds,22.0752,-159.319,Sheraton Kauai Coconut Beach Resort
153,Madingou,CG,76.21,light rain,-4.1536,13.55,HOTEL KIM ELISA
154,Tonj,SS,68.94,overcast clouds,7.2737,28.6822,Lakan Hotel
155,Tambau,BR,79.47,overcast clouds,-21.705,-47.2744,Estalagem do Sobreira
156,Mindelo,CV,76.55,few clouds,16.8901,-24.9804,Hotel Gaudi
158,Cururupu,BR,77.23,scattered clouds,-1.8283,-44.8683,POUSADA TRAVÉS'CIA
161,Celestun,MX,83.68,scattered clouds,20.8667,-90.4,Posada Lilia
163,Bengkulu,ID,75.16,overcast clouds,-3.8004,102.2655,Grage Hotel Bengkulu
164,Lira,UG,63.28,moderate rain,2.235,32.9097,ST Lira Hotel Limited
165,Souillac,MU,71.98,scattered clouds,-20.5167,57.5167,Shanti Maurice Resort & Spa
168,Eyl,SO,77.81,light rain,7.9803,49.8164,EYL AQUE SYSTEM
169,Cabo San Lucas,MX,87.1,few clouds,22.8909,-109.9124,Hotel Tesoro Los Cabos
170,Yaan,NG,74.95,overcast clouds,7.3833,8.5667,
171,Muriwai Beach,NZ,66.96,scattered clouds,-36.8167,174.45,Coast Retreat Muriwai - Golf and Surf Holiday
173,Barra Velha,BR,75.09,broken clouds,-26.6322,-48.6847,Vila Alaíde Praia Hotel
176,Camacha,PT,65.62,few clouds,33.0833,-16.3333,Hotel Porto Santo & Spa
178,Clarence Town,AU,66.94,broken clouds,-32.5833,151.7833,River Downs Cottage
179,Lagoa,PT,65.79,light rain,39.05,-27.9833,Casa Das Faias
180,San Juan,AR,80.02,clear sky,-31.5375,-68.5364,Hotel Provincial
181,Faanui,PF,78.89,clear sky,-16.4833,-151.75,Bora-Bora Pearl Beach Resort & Spa
182,Bambous Virieux,MU,71.85,scattered clouds,-20.3428,57.7575,Casa Tia Villa
184,Beloha,MG,65.8,clear sky,-25.1667,45.05,
185,Acarau,BR,79.54,clear sky,-2.8856,-40.12,castelo pizzaria
187,Surman,LY,73.69,overcast clouds,32.7567,12.5716,عمارة السفير
188,Port Augusta,AU,65.12,clear sky,-32.5,137.7667,Majestic Oasis Apartments
190,Bredasdorp,ZA,61.43,light rain,-34.5322,20.0403,Bredasdorp Country Manor
191,Aquiraz,BR,81.18,clear sky,-3.9014,-38.3911,Pousada Rua Camurupim
192,Pauini,BR,77.36,overcast clouds,-7.7136,-66.9764,Casa do Kiwliks
193,Hasaki,JP,70.2,overcast clouds,35.7333,140.8333,Inubosaki Kanko Hotel
194,Dutlwe,BW,71.42,overcast clouds,-23.9833,23.9,
195,Caceres,ES,66.7,overcast clouds,39.522,-6.3748,Ahc Hoteles
196,Pitimbu,BR,77.59,scattered clouds,-7.4706,-34.8086,Reserva do Abiaí
197,Isangel,VU,78.46,clear sky,-19.55,169.2667,Tanna Lodge
198,Dingle,PH,77.11,overcast clouds,10.9995,122.6711,SEGAYA PROPERTY
199,Lagos,NG,77.05,overcast clouds,6.5833,3.75,
201,Messina,IT,67.19,clear sky,38.1933,15.5497,Hotel Touring
202,Kapit,MY,72.84,overcast clouds,2.0167,112.9333,Hotel Meligai Kapit
203,Sao Joao Da Barra,BR,73.49,broken clouds,-21.6403,-41.0511,Pousada Porto De Canoas
205,Broken Hill,AU,61.12,clear sky,-31.95,141.4333,Royal Exchange Hotel
206,Porto-Vecchio,FR,65.86,clear sky,41.591,9.2795,Hôtel Le Goéland - Casa Santini
208,Gizo,SB,83.55,scattered clouds,-8.103,156.8419,Imagination Island
209,Sampit,ID,75.0,light rain,-2.5333,112.95,Aquarius Boutique Hotel Sampit
210,Marawi,PH,69.57,overcast clouds,7.9986,124.2928,Derogongan Residence
211,Fomboni,KM,76.19,clear sky,-12.28,43.7425,Auberge les abou
215,Loa Janan,ID,74.21,overcast clouds,-0.583,117.095,Kost Garuda
217,Kavieng,PG,83.21,light rain,-2.5744,150.7967,Nusa Island Retreat
219,Port-Gentil,GA,78.76,scattered clouds,-0.7193,8.7815,Fengshui Residence
221,Anito,PH,77.9,heavy intensity rain,12.4497,125.2886,El Felix Cottages
222,West Bay,KY,85.06,few clouds,19.3667,-81.4167,Calypso Cove
223,Salur,IN,73.49,few clouds,18.5333,83.2167,SATYAM NAIDU FARM HOUSE ( సత్యం నాయుడు వ్యవసాయ క్షేత్రం )
224,Coruripe,BR,74.17,few clouds,-10.1256,-36.1756,Pousada e Hotel Litoral Sul
227,Hambantota,LK,77.32,overcast clouds,6.1241,81.1185,Bungalow 63
229,Zambezi,ZM,66.49,few clouds,-13.5432,23.1047,Royal Kutachika Lodge
230,Biu,NG,72.88,scattered clouds,10.6129,12.1946,Emir's Palace
232,Xacmaz,AZ,60.51,overcast clouds,41.4635,48.806,Ulduz Hotel
235,Manzanillo,CU,83.21,light rain,20.3433,-77.1167,"HOSTAL ""THE YELLOW HOUSE"""
237,Karratha,AU,70.34,clear sky,-20.7377,116.8463,ibis Styles Karratha
239,Tessalit,ML,84.58,broken clouds,20.1986,1.0114,
240,Bam,IR,74.3,clear sky,29.106,58.357,Bam Tourist Hotel
242,Clearlake,US,72.36,clear sky,38.9582,-122.6264,Americas Best Value Inn & Suites Clearlake Wine Country
243,Menongue,AO,66.63,overcast clouds,-14.6585,17.691,Ritz Lauca
244,Kaduna,NG,71.42,overcast clouds,10.5222,7.4383,HAMDALA HOTEL
245,Acapulco,MX,85.82,broken clouds,16.8634,-99.8901,HS Hotsson Smart Acapulco
249,Hounde,BF,80.04,few clouds,11.5,-3.5167,Carrefour où ouvriers dorment
251,Songling,CN,60.49,clear sky,31.1933,120.7176,苏州同里湖大饭店
256,Price,US,70.12,clear sky,39.5994,-110.8107,National 9 - Price River Inn
257,Harper,LR,76.37,overcast clouds,4.375,-7.7169,Screensaver
258,Mahibadhoo,MV,80.35,overcast clouds,3.7833,72.9667,Omadhoo Inn
259,The Valley,AI,82.81,few clouds,18.217,-63.0578,CeBlue Villas & Beach Resort
260,Dwarka,IN,81.52,broken clouds,22.2394,68.9678,Hotel Narayan Avezika Comfort
261,Kihei,US,87.82,clear sky,20.785,-156.4656,Maui Sunset
262,Upata,VE,76.89,overcast clouds,8.0086,-62.3989,Posada Villa Nela
263,Vila Velha,BR,73.94,few clouds,-20.3297,-40.2925,Hotel Vitória Palace
264,Bandarbeyla,SO,77.13,clear sky,9.4942,50.8122,JABIR HOTEL
265,Vicente Guerrero,MX,72.79,broken clouds,19.1194,-98.1708,Instituto De Seguridad Y Servicios Sociales De Los Trabajadores Del Estado
266,Machali,CL,76.28,clear sky,-34.1833,-70.6667,Mining House
268,Meulaboh,ID,75.47,overcast clouds,4.1363,96.1285,Kost Pria
269,Mushie,CD,73.4,broken clouds,-3.0167,16.9,
270,Salinas,US,69.89,clear sky,36.6777,-121.6555,Laurel Inn & Conference Center
273,Alyangula,AU,82.71,broken clouds,-13.8483,136.4192,Groote Eylandt Lodge
274,Hualmay,PE,64.98,scattered clouds,-11.0964,-77.6139,Hotel Villa Kitzia Huacho
275,Tezu,IN,67.73,clear sky,27.9167,96.1667,Circuit House
280,Labuhan,ID,78.49,light rain,-6.8844,112.2051,DoubleFAG
281,Ancud,CL,64.22,overcast clouds,-41.8697,-73.8203,Hotel Arena Gruesa
282,Siocon,PH,79.14,overcast clouds,7.7061,122.1353,ABS Hotel
283,Hervey Bay,AU,68.02,light rain,-25.2986,152.8535,Shelly Bay Resort
285,Alugan,PH,78.24,heavy intensity rain,12.2188,125.4808,JM Lodge
286,Lagunas,PE,83.01,overcast clouds,-5.2269,-75.6753,Hospedaje Eco
287,Kutum,SD,76.03,clear sky,14.2,24.6667,Dibbo areaمنطقة دبو
288,High Rock,BS,82.42,clear sky,26.6208,-78.2833,Hideaway Bahamas Beach Club
289,Algiers,DZ,67.82,overcast clouds,36.7525,3.042,Sofitel Algiers Hamma Garden
290,Flinders,AU,63.18,overcast clouds,-34.5833,150.8552,Shellharbour Resort & Conference Centre
291,Wukari,NG,75.99,overcast clouds,7.85,9.7833,Elimtop
294,Hanna,CA,63.86,scattered clouds,51.6334,-111.9018,West View Motel
295,Clovis,US,82.47,few clouds,36.8252,-119.7029,Fairfield Inn & Suites by Marriott Fresno Clovis
296,Novo Aripuana,BR,78.94,overcast clouds,-5.1206,-60.3797,Hotel Ezequiel
297,Grabouw,ZA,62.47,light rain,-34.1515,19.0151,Belfield Wines and Farm Cottages
298,Kalemie,CD,69.62,broken clouds,-5.9475,29.1947,Mahobilali
299,Manokwari,ID,80.13,overcast clouds,-0.8667,134.0833,Swiss Belhotel Manokwari
300,Terrace,CA,66.11,clear sky,54.5163,-128.6035,Northern Motor Inn
301,Alice Springs,AU,74.75,clear sky,-23.7,133.8833,Desert Palms Alice Springs
302,Sai Buri,TH,76.71,overcast clouds,6.7013,101.6168,สวนป่ารีสอร์ท
304,Carlsbad,US,76.77,overcast clouds,33.1581,-117.3506,Carlsbad Inn Beach Resort
306,Along,IN,60.62,clear sky,28.1667,94.7667,Hotel West
310,Guerrero Negro,MX,73.94,clear sky,27.9769,-114.0611,"Casa Laguna, Bed & Breakfast"
311,Kalmunai,LK,76.69,overcast clouds,7.4167,81.8167,VS Villa
312,Raja Jang,PK,71.73,clear sky,31.2208,74.2519,Rana irfan home
313,Mbandaka,CD,72.23,scattered clouds,0.0487,18.2603,Guest House Epervier
314,Fremont,US,74.37,overcast clouds,37.5483,-121.9886,Best Western Plus Garden Court Inn
316,Tautira,PF,77.07,clear sky,-17.7333,-149.15,Pension Oaoa
318,Kirakira,SB,84.33,overcast clouds,-10.4544,161.9205,SanBiz Lodge
321,Iquitos,PE,77.04,broken clouds,-3.7481,-73.2472,Cortez Malaga Techy Caroly
323,Kokoda,PG,80.6,overcast clouds,-8.8785,147.7407,Daito Guest House
324,Uthal,PK,79.72,clear sky,25.8072,66.6219,Al-Mustafa Hotel
325,Arlit,NE,87.3,clear sky,18.7369,7.3853,Case de Passage De la Prefecture
326,Morant Bay,JM,85.62,few clouds,17.8815,-76.4093,Whispering Bamboo Cove Resort
327,Panzhihua,CN,60.08,overcast clouds,26.5851,101.7128,Electric Power Hotel
330,Tanta,EG,70.0,clear sky,30.7885,31.0019,Hesham & Fouad Pharma Group Pharmacies
332,Margate,GB,60.69,overcast clouds,51.3813,1.3862,Premier Inn Margate hotel
334,Airai,TL,62.64,broken clouds,-8.9266,125.4092,
336,Gat,IL,75.4,clear sky,31.61,34.7642,OlusHome
341,Vila Franca Do Campo,PT,66.61,light rain,37.7167,-25.4333,Pestana Bahia Praia
342,Pangkalanbuun,ID,74.61,light rain,-2.6833,111.6167,Grand Kecubung Hotel
345,Miandrivazo,MG,76.15,scattered clouds,-19.5167,45.4667,Hôtel Arc En Ciel Miandrivazo
346,San Cristobal,VE,78.98,light rain,7.7669,-72.225,Pirineos
347,Mocoa,CO,75.54,overcast clouds,1.1493,-76.6466,Casita Limon Mandarina
349,Port Blair,IN,78.89,overcast clouds,11.6667,92.75,"Welcomhotel By ITC Hotels, Bay Island, Port Blair"
350,Mutum,BR,73.58,scattered clouds,-19.8,-41.4383,Hotel do Djalma
351,Polson,US,66.72,clear sky,47.6936,-114.1632,Americas Best Value Port Polson Inn
352,Marsh Harbour,BS,80.26,clear sky,26.5412,-77.0636,Abaco Beach Resort
353,Umm Kaddadah,SD,85.19,few clouds,13.6017,26.6876,
355,Lambarene,GA,73.44,broken clouds,-0.7001,10.2406,Le Refuge
356,Gewane,ET,81.59,clear sky,10.1664,40.6453,እንደገና ገዋኔ ሞቴል
358,Lixourion,GR,67.42,clear sky,38.2019,20.4314,Hotel Summery
360,Bontang,ID,76.73,overcast clouds,0.1333,117.5,KOPKAR Hotel Bintang Sintuk
365,San Carlos De Bariloche,AR,65.44,scattered clouds,-41.1456,-71.3082,Hotel Patagonia
366,Japura,ID,73.04,light rain,-0.3167,102.35,Rumah mbah Jamah
367,Praia Da Vitoria,PT,64.65,light intensity shower rain,38.7333,-27.0667,Hotel Branco I
369,Conde,BR,76.46,scattered clouds,-7.2597,-34.9075,Pousada Beija Flor
370,Caravelas,BR,73.35,clear sky,-17.7125,-39.2481,Pousada dos Navegantes
372,Yumbe,UG,65.08,light rain,3.4651,31.2469,Antonio's Hotel
374,Ewo,CG,71.64,broken clouds,-0.8725,14.8206,Residence Elonda Ewo
377,Smithers,CA,66.52,clear sky,54.7804,-127.1743,"Prestige Hudson Bay Lodge, Premier Collection"
379,Ponta Delgada,PT,66.92,scattered clouds,37.7333,-25.6667,Vila Nova Hotel
380,Puerto Escondido,MX,86.83,thunderstorm,15.85,-97.0667,Aldea del Bazar Hotel and Spa
382,San Fernando,PH,78.53,overcast clouds,15.0286,120.6898,Maharlika Hostel
383,Paka,MY,75.13,overcast clouds,4.6374,103.4368,RUMBIA RESORT VILLA Paka Terengganu
384,Ahuimanu,US,85.71,scattered clouds,21.4447,-157.8378,Paradise Bay Resort
386,Cam Ranh,VN,76.96,broken clouds,11.9214,109.1591,OYO 598 Peony Hotel
388,Ketchikan,US,64.87,clear sky,55.3422,-131.6461,Snow's Cove Lodge
389,Beibei,CN,65.37,scattered clouds,29.8256,106.4339,FX Hotel Chongqing at Beibei Southwest University
391,Tabou,CI,76.17,overcast clouds,4.423,-7.3528,hotêl doufoulougou
392,Palmer,US,60.35,scattered clouds,42.1584,-72.3287,Wedgewood Motel
395,Bang Saphan,TH,72.88,broken clouds,11.2126,99.5117,Ladawan Boutique Hotel
396,Nelson Bay,AU,66.25,scattered clouds,-32.7167,152.15,Mantra Nelson Bay
397,Moses Lake,US,80.89,clear sky,47.1301,-119.2781,Ramada by Wyndham Moses Lake
399,Chimoio,MZ,66.06,scattered clouds,-19.1164,33.4833,Residencial Dabhad
401,Cabra,ES,73.36,light rain,37.4725,-4.4421,MS Fuente Las Piedras
402,San Joaquin,US,75.27,clear sky,37.9333,-121.3011,University Plaza Waterfront Hotel
403,Mae Hong Son,TH,71.74,mist,19.3003,97.9685,Baiyoke Chalet Hotel
404,Kindia,GN,69.73,moderate rain,10.0569,-12.8658,LES EAUX DE KILISSI
405,Contamana,PE,89.51,broken clouds,-7.3333,-75.0167,Shiringal Touristic Park
406,Portland,US,88.52,smoke,45.5234,-122.6762,Embassy Suites by Hilton Portland Downtown
407,West Wendover,US,66.49,clear sky,40.7391,-114.0733,"Motel 6 Wendover, UT"
412,Ati,TD,89.28,clear sky,13.2154,18.3353,
413,Asfi,MA,71.22,clear sky,32.2994,-9.2372,Hôtel Abda
414,Vangaindrano,MG,66.31,clear sky,-23.35,47.6,Hotel Fanilo
415,Esperantina,BR,85.06,overcast clouds,-3.9017,-42.2336,Hotel Bela Vista
416,Kieta,PG,82.9,broken clouds,-6.2167,155.6333,Uruna Bay Retreat
417,Grand Gaube,MU,72.0,few clouds,-20.0064,57.6608,Veranda Paul et Virginie Hotel & Spa
418,Rio Gallegos,AR,64.45,clear sky,-51.6226,-69.2181,Hotel Santa Cruz
420,Thornbury,GB,60.01,overcast clouds,52.2333,-2.55,Treeopia - Romantic Adult Only Getaway
421,Cozumel,MX,87.87,scattered clouds,20.5083,-86.9458,Cozumel Palace® All Inclusive Resort
422,Halifax,CA,64.69,overcast clouds,44.6453,-63.5724,Hotel Halifax
423,Sinjar,IQ,74.61,few clouds,36.3209,41.8754,زوماني فون 1
424,Invermere,CA,66.36,few clouds,50.5167,-116.0354,Copper Point Resort
427,Kaeo,NZ,64.33,broken clouds,-35.1,173.7833,Bushido Lodge
428,Kidal,ML,83.98,few clouds,18.4411,1.4078,
429,Poum,NC,75.34,clear sky,-20.2333,164.0167,
430,Biak,ID,76.77,broken clouds,-0.9131,122.8766,Penginapan Kim
431,Nogales,MX,70.25,broken clouds,31.3086,-110.9422,Siesta Motel
432,San Juan Del Sur,NI,80.82,scattered clouds,11.2529,-85.8705,Nuestra Casa
433,Choa Saidan Shah,PK,69.8,clear sky,32.7201,72.9849,Office RFO RM
437,Bin Qirdan,TN,74.1,scattered clouds,33.1378,11.2197,Hôtel Palace
442,Oum Hadjer,TD,87.22,clear sky,13.2954,19.6966,
446,Bogo,PH,78.93,overcast clouds,11.0517,124.0055,Acrige Apartelle
447,Steamboat Springs,US,66.54,clear sky,40.485,-106.8317,Steamboat Grand
450,Albania,AL,61.12,clear sky,41.0,20.0,Bora Homestay
451,Kazerun,IR,72.03,clear sky,29.6195,51.6541,آپارتمان بزرگ اویسا
452,Ourossogui,SN,82.4,clear sky,15.6064,-13.3211,Hotel welma
453,Tumbes,PE,75.15,scattered clouds,-3.5667,-80.4414,Wyndham Costa del Sol Tumbes
454,Rio Branco,BR,79.41,broken clouds,-9.9747,-67.81,Hotel Guapindaia Bosque
457,Gwanda,ZW,66.6,scattered clouds,-20.9333,29.0,Mafax Homeways
458,Mossendjo,CG,68.83,scattered clouds,-2.9506,12.7261,HOTEL D'ASSISE
460,Kawasaki,JP,70.02,broken clouds,35.5206,139.7172,Toyoko INN Kawasaki-Ekimae Shiyakusho-dori
461,Bubaque,GW,81.73,scattered clouds,11.2833,-15.8333,"Casa Dora, Bubaque"
462,Santa Barbara,US,71.22,clear sky,34.7333,-120.0343,Upper Ballard Campground
467,Jinxiang,CN,67.62,overcast clouds,27.4327,120.6062,Wolong Village
468,Rawah,IQ,79.32,scattered clouds,34.4816,41.9093,عمر
469,Matiri,TZ,63.23,clear sky,-10.75,34.9,
470,Weligama,LK,75.88,light rain,5.9667,80.4167,Weligama Bay Resort
471,Carutapera,BR,79.47,scattered clouds,-1.195,-46.02,Lidera
472,Morro Bay,US,78.39,clear sky,35.3658,-120.8499,Inn at Morro Bay
476,San Pedro De Macoris,DO,86.13,broken clouds,18.4616,-69.2972,Apartahotel Guaraguao
480,Cidreira,BR,64.18,broken clouds,-30.1811,-50.2056,Hotel Castelo
481,Surin,TH,71.98,scattered clouds,14.8818,103.4936,One Fu Hotel
482,Richmond,US,67.98,overcast clouds,37.5538,-77.4603,"Holiday Inn Express Richmond - Downtown, an IHG Hotel"
485,Tabora,TZ,75.9,overcast clouds,-5.0167,32.8,Barcelona Lodge
488,Puerto Ayacucho,VE,76.46,light rain,5.6639,-67.6236,Posada Turistica Manapiare
489,Huangmei,CN,61.14,clear sky,30.1924,116.025,Tianxiachan Hotel
490,Neiafu,TO,84.88,scattered clouds,-18.65,-173.9833,Mystic Sands Beachfront Accommodation
491,Padang,ID,76.12,light rain,-0.9492,100.3543,Mercure Padang
494,Junagarh,IN,72.27,clear sky,19.8667,82.9333,Hotel Swagat
495,Saint-Joseph,RE,68.38,scattered clouds,-21.3667,55.6167,"""Plantation Bed and Breakfast"
498,Tabriz,IR,62.06,scattered clouds,38.08,46.2919,Sina Hotel
503,Touros,BR,77.65,clear sky,-5.1989,-35.4608,INN NEW HORIZON
505,Morropon,PE,85.71,broken clouds,-5.1822,-79.9689,panaderia jeffeson
506,Annamalainagar,IN,77.85,broken clouds,11.4,79.7333,Hotel Akshaya
507,Kulhudhuffushi,MV,80.31,overcast clouds,6.6221,73.07,Haajy Guest House 1
509,Dumai,ID,73.04,light rain,1.6833,101.45,Grand Zuri Dumai
510,Porto Novo,BJ,80.42,broken clouds,6.4965,2.6036,Tour Eiffel Hotel Benin
512,Rincon,US,77.95,clear sky,32.296,-81.2354,Days Inn Rincon
513,Gao,ML,86.34,few clouds,16.6362,1.637,
514,Nalut,LY,71.6,few clouds,30.3333,10.85,
515,Hirara,JP,80.87,broken clouds,24.8,125.2833,Hotel Atoll Emerald Miyakojima
517,Veraval,IN,78.64,broken clouds,20.9,70.3667,Lords Inn Somnath
519,Chauk,MM,76.68,overcast clouds,20.8833,94.8167,Bo Khin Guest House
520,Hamada,JP,66.11,broken clouds,34.8833,132.0833,Shimane Hamada Washington Hotel Plaza
521,Lockhart,US,85.93,clear sky,28.6194,-81.4426,Courtyard by Marriott Orlando Altamonte Springs/Maitland
524,Westport,US,64.38,clear sky,41.1415,-73.3579,The Westport Inn
527,Harindanga,IN,75.22,clear sky,22.0383,88.3214,Hasanur Builders
529,Esmeralda,CU,82.78,scattered clouds,21.8525,-78.1169,Centro de Pioneros Exploradores
530,Kupang,ID,80.53,broken clouds,-10.1667,123.5833,Hotel On The Rock by Prasanthi
533,Nortelandia,BR,88.25,broken clouds,-14.4547,-56.8028,Pousada e Restaurante Santana
534,Kloulklubed,PW,82.9,overcast clouds,7.0419,134.2556,Storyboard Beach Resort
535,Gazanjyk,TM,66.83,few clouds,39.2446,55.5154,Railway motel
536,Banamba,ML,81.84,scattered clouds,13.55,-7.45,Kassela de Banamba
537,Gladstone,AU,73.78,broken clouds,-23.85,151.25,Highpoint International Hotel
538,Mahenge,TZ,60.48,few clouds,-8.6833,36.7167,Mahenge ulanga
544,Hartford,US,61.0,clear sky,41.7668,-72.7662,West Hartford Inn
545,Tual,ID,83.35,overcast clouds,-5.6667,132.75,Grand Vilia Hotel
547,Longhua,CN,74.37,overcast clouds,23.6137,114.1919,Huadu Hotel
548,New Amsterdam,GY,78.12,overcast clouds,6.25,-57.5167,Little Rock Suites
550,Almeirim,BR,82.89,overcast clouds,-1.5233,-52.5817,Ricácio Hotel
551,Tateyama,JP,69.73,mist,34.9833,139.8667,Tateyama Seaside Hotel
552,Port Shepstone,ZA,67.69,overcast clouds,-30.7414,30.455,My Den Beachfront Bed and Breakfast | Self-Catering
553,Maumere,ID,81.52,moderate rain,-8.6199,122.2111,Sylvia Hotel
554,Salalah,OM,77.09,clear sky,17.0151,54.0924,"HAMDAN PLAZA HOTEL SALALAH, an HTG Hotel"
556,Hinton,CA,71.49,clear sky,53.4001,-117.5857,Econo Lodge & Suites
557,Mweka,CD,66.34,overcast clouds,-4.85,21.5667,Guest House Boshab
559,Nizwa,OM,74.32,overcast clouds,22.9333,57.5333,Orient Apartments
560,Formosa,AR,80.58,few clouds,-26.1775,-58.1781,Asterión Departamentos
563,Salisbury,GB,62.69,overcast clouds,51.0693,-1.7957,Mercure Salisbury White Hart Hotel
564,Kununurra,AU,80.58,overcast clouds,-15.7667,128.7333,Hotel Kununurra
565,Ganzhou,CN,62.91,clear sky,28.8184,115.4327,Zhanqian Grand Hotel
566,Magnolia,US,71.29,overcast clouds,33.2671,-93.2393,Budget Inn
568,Fortuna,US,70.92,few clouds,40.5982,-124.1573,Super 8 by Wyndham Fortuna
569,Unguia,CO,80.62,overcast clouds,8.0434,-77.0945,Residencias El Golfo
570,Marrakesh,MA,69.87,scattered clouds,31.6315,-8.0083,Les Jardins de La Koutoubia
571,Mwinilunga,ZM,66.67,broken clouds,-11.7358,24.4293,Kwakuwahi Lodge
572,Pacific Grove,US,69.48,overcast clouds,36.6177,-121.9166,Lovers Point Inn
573,Ubauro,PK,74.84,clear sky,28.1652,69.7289,Stamp Vendor
574,Rio De Janeiro,BR,76.96,clear sky,-22.9028,-43.2075,Hotel cruz de ouro
575,Jiaocheng,CN,70.52,overcast clouds,24.6774,116.1389,Changtan Tourism Resort
576,Tacoronte,ES,66.4,few clouds,28.4769,-16.4102,Casa Laurel
579,Araouane,ML,88.99,broken clouds,18.9048,-3.5265,
580,Santa Cruz,BO,87.85,broken clouds,-17.8,-63.1667,Aviador Hotel Boutique
582,Bac Lieu,VN,74.93,overcast clouds,9.285,105.7244,Khách sạn Sài Gòn Bạc Liêu
583,Oistins,BB,80.69,few clouds,13.0667,-59.5333,Butterfly Beach Hotel
587,Hatillo,PR,81.16,broken clouds,18.4863,-66.8254,El Buen Hotel
589,Avera,US,77.38,scattered clouds,33.194,-82.5271,
590,Yulara,AU,73.44,clear sky,-25.2406,130.9889,Desert Gardens Hotel - Ayers Rock Resort
592,Elko,US,72.05,clear sky,41.0002,-115.5012,
593,Lazaro Cardenas,MX,84.49,overcast clouds,17.9583,-102.2,HOTEL QUINTA ANTIGUA
594,Berbera,SO,82.54,scattered clouds,10.4396,45.0143,IBCO REAL ESTATE PROPERTY
598,Bowen,AU,77.27,overcast clouds,-20.0167,148.2333,Castle Motor Lodge Motel
601,Vao,NC,71.01,few clouds,-22.6667,167.4833,Hotel Kou-Bugny
603,Kangaba,ML,76.69,scattered clouds,11.9333,-8.4167,CAF (case de l´amitié et de la fraternité)
604,Saint-Georges,GD,79.84,clear sky,12.0564,-61.7485,Radisson Grenada Beach Resort
607,Ohara,JP,71.73,overcast clouds,35.25,140.3833,Sakigake
609,Naberera,TZ,60.33,few clouds,-4.2,36.9333,
611,Kaura Namoda,NG,79.3,scattered clouds,12.5898,6.5779,Moonlight Hotel
612,Chitipa,MW,65.1,scattered clouds,-9.7024,33.2697,Tulipoka Lodges
614,Los Llanos De Aridane,ES,65.95,clear sky,28.6585,-17.9182,Valle Aridane
615,Half Moon Bay,US,72.88,overcast clouds,37.4636,-122.4286,"The Ritz-Carlton, Half Moon Bay"
616,Lorengau,PG,82.4,overcast clouds,-2.0226,147.2712,Lorengau Harbourside Hotel
617,Iralaya,HN,81.09,light rain,15.0,-83.2333,Iglesia morava renovada
618,Nchelenge,ZM,75.85,broken clouds,-9.3451,28.734,KD Travellers Home
619,Curuca,BR,79.02,overcast clouds,-0.7289,-47.8481,Hotel Curuça
622,Sorong,ID,78.46,overcast clouds,-0.8833,131.25,Waigo Splash Hotel
623,Uribia,CO,85.89,overcast clouds,11.7139,-72.266,Hotel Uribia
624,Hobe Sound,US,82.99,scattered clouds,27.0595,-80.1364,Floridays RV Park
626,Kahului,US,87.82,clear sky,20.8947,-156.47,Maui Seaside Hotel
629,Loandjili,CG,76.64,overcast clouds,-4.7561,11.8578,Résidence ARCHANGE
630,Havelock,US,75.18,clear sky,34.8791,-76.9013,Sherwood Motel
631,Sarangani,PH,82.94,overcast clouds,5.4033,125.4636,JVL Inn and Cafeteria
632,Port Hardy,CA,73.58,clear sky,50.6996,-127.4199,Airport Inn-Port Hardy
633,Angoche,MZ,73.49,clear sky,-16.2325,39.9086,Guest House HESADA
635,Parati,BR,69.96,overcast clouds,-23.2178,-44.7131,Che Lagarto Paraty
638,Cairns,AU,82.11,scattered clouds,-16.9167,145.7667,Mantra Trilogy Cairns
639,Eureka,US,71.19,clear sky,40.8021,-124.1637,Eureka Inn Trademark By Wyndham
642,Tiarei,PF,84.22,clear sky,-17.5333,-149.3333,Le Rocher de Tahiti
643,Inhambane,MZ,71.89,overcast clouds,-23.865,35.3833,Oceano
644,Canto Do Buriti,BR,84.24,clear sky,-8.11,-42.9444,Novo Hotel
646,Ridgecrest,US,85.68,clear sky,35.6225,-117.6709,SpringHill Suites by Marriott Ridgecrest
647,Anakapalle,IN,78.75,few clouds,17.6833,83.0167,Satya Lodge
648,Alta Floresta,BR,76.91,overcast clouds,-9.8756,-56.0861,Floresta Amazonica Hotel
649,Plettenberg Bay,ZA,65.59,overcast clouds,-34.0527,23.3716,Thanda Vista B&B
650,Xai-Xai,MZ,70.72,overcast clouds,-25.0519,33.6442,Complexo da Familia
651,Waingapu,ID,81.12,overcast clouds,-9.6567,120.2641,Pondok Wisata Elim
652,Vanimo,PG,77.9,overcast clouds,-2.6741,141.3028,Vahmoneh Lodge Vanimo
653,Panama City,PA,83.44,scattered clouds,8.9936,-79.5197,Trump International Hotel & Tower Panama
654,Larreynaga,NI,81.55,overcast clouds,12.6769,-86.5719,Finca El Carrizal
655,Tabatinga,BR,77.09,scattered clouds,-4.2525,-69.9381,Hotel Amazon Bed and Breakfast / Hotel Amazon B&B
656,Zhicheng,CN,63.03,clear sky,30.2956,111.5047,Wangjiang Building
659,Mata Grande,BR,73.11,clear sky,-9.1175,-37.7322,Hotel Casarão
662,Prainha,BR,86.05,broken clouds,-1.8,-53.48,Casa Rocha
664,Semme,FR,64.81,overcast clouds,46.1963,1.5007,Inter-Hotel Alexia
666,Amahai,ID,78.19,overcast clouds,-3.3333,128.9167,HOTEL ISABELA
668,Mporokoso,ZM,72.37,overcast clouds,-9.3727,30.125,Kutemwa lodge
672,Porbandar,IN,79.61,overcast clouds,21.6422,69.6093,Lords Inn Porbandar
673,Puerto Del Rosario,ES,71.35,few clouds,28.5004,-13.8627,Hotel JM Puerto del Rosario
677,Lingao,CN,76.89,overcast clouds,19.9103,109.6859,Lingao Ditai Inn
678,San Jose Iturbide,MX,80.11,clear sky,21.0,-100.3833,Los Arcos
679,Natal,BR,77.65,few clouds,-5.795,-35.2094,Villa Park Hotel | Natal
681,Atambua,ID,76.08,scattered clouds,-9.1061,124.8925,Ros Muskanan
682,Soyo,AO,76.86,overcast clouds,-6.1349,12.3689,Hospedaria ndozi'ame
683,Gbarnga,LR,71.33,overcast clouds,6.9956,-9.4722,Passion Hotel 2
685,Senanga,ZM,71.33,few clouds,-16.1167,23.2667,Zango lodge
686,Phan Thiet,VN,76.24,overcast clouds,10.9333,108.1,Hotel Saigon-PT
687,Mogadishu,SO,77.68,broken clouds,2.0371,45.3438,Hotel Juba
689,Saint-Francois,FR,67.44,clear sky,46.4154,3.9054,Maison Vin d'Hus
690,Albina,SR,78.21,broken clouds,5.5,-54.05,Hudace
691,Bonthe,SL,76.77,overcast clouds,7.5264,-12.505,Bonthe Holiday Village
692,Vaitape,PF,78.87,clear sky,-16.5167,-151.75,Conrad Bora Bora Nui
